City_ID,City,Lat,Lng,Max Temp,Humidity,Cloudiness,Wind Speed,Country,Date
0,akobo,7.4344,3.9497,26.61,59,100,0.77,NG,1700157959
1,avarua,-21.2078,-159.775,23.03,64,95,4.63,CK,1700157959
2,arawa,-6.2132,155.5367,22.55,83,58,2.0,PG,1700157959
3,invercargill,-46.4,168.35,8.34,93,100,1.74,NZ,1700157959
4,nemuro,43.3236,145.575,9.03,70,95,7.18,JP,1700157959
5,olinda,-8.0089,-34.8553,28.85,74,75,3.6,BR,1700157960
6,ribeira grande,38.5167,-28.7,21.22,94,75,10.73,PT,1700157718
7,grytviken,-54.2811,-36.5092,1.71,99,100,4.1,GS,1700157960
8,stanley,54.868,-1.6985,5.95,94,20,1.03,GB,1700157960
9,longyearbyen,78.2186,15.6401,-12.09,67,40,6.17,SJ,1700157960
10,antonio enes,-16.2325,39.9086,24.78,64,2,5.66,MZ,1700157960
11,hengchun,22.0042,120.7439,22.39,82,85,9.03,TW,1700157960
12,tolanaro,-25.0319,46.9987,20.04,88,75,5.14,MG,1700157961
13,ban dan lan hoi,17.0068,99.575,23.46,92,97,0.61,TH,1700157961
14,ilulissat,69.2167,-51.1,-7.99,73,75,0.0,GL,1700157961
15,atafu village,-8.5421,-172.5159,29.15,75,95,3.03,TK,1700157961
16,saipan,15.1355,145.701,28.42,76,99,9.11,MP,1700157713
17,albany,42.6001,-73.9662,16.0,49,6,0.45,US,1700157811
18,nova sintra,14.8667,-24.7167,23.94,70,93,3.92,CV,1700157722
19,muroto-misakicho,33.2833,134.15,18.97,90,100,11.6,JP,1700157961
20,bredasdorp,-34.5322,20.0403,18.27,85,99,2.34,ZA,1700157962
21,fortuna,40.5982,-124.1573,18.29,83,75,0.89,US,1700157962
22,fort bragg,35.139,-79.006,23.14,51,100,2.06,US,1700157754
23,qaqortoq,60.7167,-46.0333,-3.84,79,93,3.6,GL,1700157722
24,adamstown,-25.066,-130.1015,21.78,90,100,6.57,PN,1700157962
25,new norfolk,-42.7826,147.0587,8.73,93,86,1.41,AU,1700157720
26,constantia,44.1833,28.65,10.38,58,55,2.96,RO,1700157963
27,bethel,41.3712,-73.414,17.94,45,0,3.6,US,1700157963
28,isafjordur,66.0755,-23.124,-1.98,86,0,0.0,IS,1700157963
29,port lincoln,-34.7333,135.8667,12.59,79,6,6.32,AU,1700157963
30,bardai,11.65,7.2333,26.58,35,100,4.15,NG,1700157963
31,thunder bay,48.4001,-89.3168,11.95,58,75,2.57,CA,1700157754
32,wailua homesteads,22.0669,-159.378,23.44,82,40,7.72,US,1700157964
33,anadyr,64.75,177.4833,-21.67,76,0,7.0,RU,1700157680
34,waitangi,-43.9535,-176.5597,14.9,93,98,3.58,NZ,1700157964
35,olonkinbyen,70.9221,-8.7187,-3.97,77,100,2.05,SJ,1700157965
36,punta del este,-34.9667,-54.95,22.06,59,0,7.2,UY,1700157965
37,lihue,21.9789,-159.3672,23.77,76,40,7.72,US,1700157965
38,leava,-14.3,-178.1667,28.29,79,53,2.13,WF,1700157966
39,saint-pierre,-21.3393,55.4781,24.76,94,75,7.72,RE,1700157966
40,arauquita,7.0292,-71.4281,35.8,36,82,1.09,CO,1700157966
41,haiku-pauwela,20.9219,-156.3051,22.8,82,40,4.63,US,1700157967
42,ushuaia,-54.8,-68.3,9.81,46,75,5.81,AR,1700157708
43,illizi,26.4833,8.4667,24.89,25,0,5.08,DZ,1700157967
44,hakui,36.8833,136.7833,14.34,86,100,1.64,JP,1700157967
45,sitka,57.0531,-135.33,5.52,94,100,1.76,US,1700157688
46,freetown,8.484,-13.2299,27.86,79,16,3.27,SL,1700157854
47,byron bay,-28.65,153.6167,22.06,95,95,5.76,AU,1700157923
48,buala,-8.145,159.5921,25.4,83,14,1.14,SB,1700157968
49,novyy urgal,51.0736,132.5642,-7.12,96,100,0.96,RU,1700157968
50,port-aux-francais,-49.35,70.2167,5.15,96,100,16.51,TF,1700157675
51,iqaluit,63.7506,-68.5145,-1.15,86,75,14.4,CA,1700157968
52,taltal,-25.4,-70.4833,18.54,69,100,3.24,CL,1700157968
53,antalaha,-14.9003,50.2788,24.66,79,100,3.21,MG,1700157969
54,lebu,-37.6167,-73.65,12.99,83,100,6.73,CL,1700157969
55,sharan,54.8167,54.0,1.63,98,100,1.36,RU,1700157969
56,san jose del monte,14.8167,121.1167,25.62,83,63,1.89,PH,1700157969
57,funafuti,-8.5243,179.1942,28.0,100,75,0.0,TV,1700157969
58,arkhangel'sk,64.5401,40.5433,-5.49,84,29,2.75,RU,1700157970
59,hermanus,-34.4187,19.2345,17.68,90,74,2.19,ZA,1700157970
60,colonia,50.9333,6.95,8.23,85,20,2.06,DE,1700157970
61,solnechnyy,50.7214,136.6319,-8.32,93,100,1.5,RU,1700157970
62,margaret river,-33.95,115.0667,12.58,74,0,5.89,AU,1700157886
63,brokopondo,4.75,-55.1667,33.09,50,15,2.28,SR,1700157971
64,hwange,-18.3693,26.5019,27.62,32,13,1.82,ZW,1700157922
65,cabo san lucas,22.8909,-109.9124,30.84,50,36,1.34,MX,1700157284
66,punta arenas,-53.15,-70.9167,11.01,66,75,4.12,CL,1700157782
67,lorengau,-2.0226,147.2712,27.31,80,47,2.55,PG,1700157854
68,lompoc,34.6391,-120.4579,22.23,67,75,7.72,US,1700157787
69,port elizabeth,-33.918,25.5701,20.17,92,100,7.2,ZA,1700157851
70,st. john's,47.5649,-52.7093,2.21,77,75,3.6,CA,1700157973
71,coquimbo,-29.9533,-71.3436,17.85,59,20,6.69,CL,1700157806
72,saldanha,-33.0117,17.9442,22.03,93,80,4.55,ZA,1700157973
73,yellowknife,62.456,-114.3525,-4.71,96,75,12.35,CA,1700157973
74,polyarnyy,69.1989,33.4478,-7.36,92,80,5.52,RU,1700157974
75,gereida,11.2811,25.1414,30.03,24,83,4.34,SD,1700157873
76,puerto ayora,-0.7393,-90.3518,27.98,94,70,2.68,EC,1700157974
77,daru,-9.0763,143.2092,24.81,82,81,3.77,PG,1700157974
78,rio pardo,-29.9897,-52.3781,26.69,77,92,2.23,BR,1700157974
79,papatowai,-46.5619,169.4708,6.95,94,100,4.12,NZ,1700157975
80,fort st. john,56.2499,-120.8529,0.94,60,100,12.86,CA,1700157975
81,lengshuitan,26.4111,111.5956,9.49,73,45,0.23,CN,1700157975
82,hammerfest,70.6634,23.6821,1.25,93,75,13.38,NO,1700157789
83,thompson,55.7435,-97.8558,-6.91,79,100,4.12,CA,1700157713
84,cockburn town,21.4612,-71.1419,27.92,75,92,10.13,TC,1700157753
85,tanout,14.9709,8.8879,26.44,28,100,5.99,NE,1700157976
86,bilibino,68.0546,166.4372,-19.74,99,100,0.34,RU,1700157976
87,alofi,-19.0595,-169.9187,24.94,94,98,3.6,NU,1700157976
88,san patricio,28.017,-97.5169,20.92,78,84,2.1,US,1700157976
89,calatayud,41.3535,-1.6432,17.6,72,32,2.93,ES,1700157976
90,duncan,34.5023,-97.9578,18.12,67,0,7.2,US,1700157916
91,ravar,31.2656,56.8055,17.67,44,30,1.88,IR,1700157977
92,valley city,46.9233,-98.0032,4.29,65,40,10.29,US,1700157977
93,sioux center,43.0797,-96.1756,16.1,75,75,2.68,US,1700157977
94,aasiaat,68.7098,-52.8699,-11.11,96,98,2.35,GL,1700157828
95,sisimiut,66.9395,-53.6735,-6.65,82,49,3.97,GL,1700157977
96,midoun,33.8081,10.9923,20.92,63,2,2.1,TN,1700157977
97,bikenibeu village,1.3673,173.1241,27.98,83,40,1.54,KI,1700157978
98,georgetown,5.4112,100.3354,27.79,92,20,2.06,MY,1700157978
99,uryupinsk,50.8047,42.0138,3.12,78,96,3.06,RU,1700157978
100,blackmans bay,-43.0167,147.3167,8.07,84,46,2.77,AU,1700157978
101,badger,64.8,-147.5333,-8.13,89,100,2.06,US,1700157819
102,wagoner,35.9595,-95.3694,17.25,87,62,6.47,US,1700157979
103,port alfred,-33.5906,26.891,19.54,90,85,2.24,ZA,1700157979
104,rabaul,-4.1967,152.1721,25.8,77,7,5.5,PG,1700157979
105,vadso,70.0744,29.7487,-3.91,74,40,4.63,NO,1700157979
106,zouerate,22.7187,-12.4521,27.56,13,0,5.04,MR,1700157980
107,acarau,-2.8856,-40.12,30.8,57,4,8.93,BR,1700157980
108,gadzhiyevo,69.2551,33.3362,-7.37,92,81,6.14,RU,1700157980
109,port mathurin,-19.6833,63.4167,25.7,77,65,7.37,MU,1700157980
110,quellon,-43.1167,-73.6167,11.0,94,100,7.61,CL,1700157980
111,fort mcmurray,56.7268,-111.381,-6.23,79,0,4.12,CA,1700157981
112,whitehorse,60.7161,-135.0538,0.43,64,20,5.14,CA,1700157714
113,iskateley,67.6803,53.1512,-8.88,96,100,2.68,RU,1700157981
114,santiago,-33.4569,-70.6483,24.63,33,0,4.12,CL,1700157370
115,prince albert,53.2001,-105.7677,-4.03,80,75,5.66,CA,1700157981
116,gao,16.6362,1.637,28.67,14,0,5.28,ML,1700157981
117,vila franca do campo,37.7167,-25.4333,21.6,99,100,8.79,PT,1700157982
118,olyokminsk,60.3736,120.4264,-9.06,80,100,4.98,RU,1700157982
119,carnarvon,-24.8667,113.6333,21.79,81,0,4.83,AU,1700157982
120,heroica matamoros,25.8833,-97.5,24.94,51,0,4.12,MX,1700157914
121,la passe,45.5549,-0.8967,13.32,80,78,8.13,FR,1700157982
122,hawaiian paradise park,19.5933,-154.9731,22.24,84,100,2.06,US,1700157982
123,enewetak,11.3474,162.3373,28.35,81,95,9.26,MH,1700157983
124,doume,4.2333,13.45,21.91,96,49,1.23,CM,1700157983
125,port moresby,-9.4431,147.1797,23.06,87,57,2.21,PG,1700157983
126,anderson,34.5334,-82.6499,21.81,56,100,4.63,US,1700157869
127,kupang,-10.1667,123.5833,27.32,94,100,2.57,ID,1700157983
128,magadan,59.5667,150.8,-15.62,73,3,2.83,RU,1700157977
129,neyriz,29.1988,54.3278,12.47,74,53,2.88,IR,1700157984
130,edinburgh of the seven seas,-37.0676,-12.3116,13.99,79,5,8.19,SH,1700157984
131,kodiak,57.79,-152.4072,3.73,60,20,4.63,US,1700157984
132,mana,5.6592,-53.7767,28.4,77,25,3.31,GF,1700157984
133,essaouira,31.5125,-9.77,26.72,44,40,4.12,MA,1700157712
134,constitucion,-35.3333,-72.4167,12.8,84,40,7.84,CL,1700157806
135,boende,-0.2167,20.8667,22.47,99,96,0.67,CD,1700157985
136,inhambane,-23.865,35.3833,23.99,60,20,1.54,MZ,1700157985
137,itacoatiara,-3.1431,-58.4442,41.21,21,0,1.5,BR,1700157985
138,holualoa,19.6228,-155.9522,23.21,74,40,2.57,US,1700157986
139,westport,41.1415,-73.3579,18.64,51,1,0.89,US,1700157763
140,piacabucu,-10.4056,-36.4344,29.63,58,40,6.77,BR,1700157986
141,mount pearl,47.5166,-52.7813,1.36,76,75,3.6,CA,1700157715
142,zheleznogorsk-ilimskiy,56.5768,104.1217,-2.57,84,100,4.92,RU,1700157987
143,lesnoy,57.6198,63.0784,-0.41,85,31,3.59,RU,1700157987
144,geraldton,-28.7667,114.6,19.23,48,0,4.12,AU,1700157987
145,northam,51.0333,-4.2167,8.67,93,56,4.63,GB,1700157987
146,san antonio de pale,-1.4014,5.6325,27.05,82,20,5.95,GQ,1700157781
147,hustopece,48.9408,16.7376,9.94,85,100,2.83,CZ,1700157988
148,tiksi,71.6872,128.8694,-14.43,95,100,2.85,RU,1700157988
149,rio brilhante,-21.8019,-54.5464,42.22,17,71,6.24,BR,1700157988
150,jamestown,42.097,-79.2353,17.48,41,0,5.14,US,1700157947
151,payyannur,12.1,75.2,25.58,84,79,1.63,IN,1700157988
152,prado,-17.3411,-39.2208,27.76,67,57,7.1,BR,1700157988
153,codrington,-38.2667,141.9667,9.64,79,57,3.42,AU,1700157988
154,hobyo,5.3505,48.5268,28.18,78,62,4.69,SO,1700157982
155,turpan,42.9333,89.1667,4.31,45,0,0.56,CN,1700157989
156,sligo,54.2697,-8.4694,7.17,87,100,7.2,IE,1700157989
157,south hedland,-20.4089,118.5983,23.96,88,0,5.14,AU,1700157989
158,tan-tan,28.438,-11.1032,21.87,65,0,2.81,MA,1700157989
159,luderitz,-26.6481,15.1594,19.21,75,26,2.51,NA,1700157989
160,fabens,31.5023,-106.1586,20.32,49,100,1.43,US,1700157989
161,hamilton,39.1834,-84.5333,20.7,49,0,2.24,US,1700157743
162,puerto natales,-51.7236,-72.4875,9.25,76,100,2.57,CL,1700157916
163,college,64.8569,-147.8028,-8.08,85,75,0.0,US,1700157990
164,topeka,39.0483,-95.678,17.18,63,0,7.72,US,1700157832
165,mananjary,-21.2167,48.3333,21.73,91,73,1.88,MG,1700157990
166,praia da vitoria,38.7333,-27.0667,21.14,88,75,12.56,PT,1700157991
167,tofol,5.3248,163.0078,28.2,76,95,2.55,FM,1700157991
168,bontang,0.1333,117.5,25.61,87,88,1.55,ID,1700157991
169,nizhnesortymskiy,62.4397,71.7603,-8.82,95,99,2.34,RU,1700157991
170,revda,56.801,59.9303,-0.11,93,85,3.07,RU,1700157991
171,reggane,26.7158,0.1714,26.5,20,2,2.81,DZ,1700157992
172,urucara,-2.5364,-57.76,42.05,17,1,3.64,BR,1700157883
173,fisterra,42.9049,-9.2629,15.57,78,78,2.62,ES,1700157992
174,udachny,66.4167,112.4,-9.77,95,100,3.09,RU,1700157695
175,usinsk,65.9939,57.5281,-17.18,92,80,3.58,RU,1700157993
176,new plymouth,-39.0667,174.0833,15.45,93,100,7.81,NZ,1700157993
177,lospalos,-8.5186,127.0025,22.6,85,13,0.53,TL,1700157693
178,fuglafjordur,62.244,-6.814,3.26,65,38,5.91,FO,1700157993
179,antofagasta,-23.65,-70.4,18.6,68,99,4.27,CL,1700157993
180,tuy hoa,13.0833,109.3,24.81,93,92,7.76,VN,1700157994
181,hithadhoo,-0.6,73.0833,28.11,77,91,6.08,MV,1700157994
182,nuuk,64.1835,-51.7216,-1.66,80,75,1.03,GL,1700157994
183,egilsstadir,65.2653,-14.3948,-2.05,100,75,1.03,IS,1700157793
184,vilyuchinsk,52.9306,158.4028,-7.26,84,7,4.39,RU,1700157995
185,chonchi,-42.6128,-73.8092,11.56,98,100,4.74,CL,1700157995
186,mitu,1.1983,-70.1733,35.67,38,48,0.32,CO,1700157995
187,kone,-21.0595,164.8658,19.68,91,5,1.8,NC,1700157996
188,airuk,7.2772,168.8203,28.29,81,100,9.13,MH,1700157996
189,ushtobe,45.2514,77.9838,9.87,31,100,1.48,KZ,1700157997
190,horta,38.5333,-28.6333,20.8,94,75,11.18,PT,1700157982
191,edgewater,28.9889,-80.9023,21.68,96,100,4.63,US,1700157997
192,mersa matruh,31.3525,27.2453,23.11,68,40,5.66,EG,1700157997
193,iskitim,54.6366,83.3045,4.9,70,100,6.16,RU,1700157998
194,den helder,52.9599,4.7593,6.66,92,100,1.03,NL,1700157998
195,texarkana,33.4251,-94.0477,16.12,82,100,2.57,US,1700157998
196,saint-paul,-21.0096,55.2707,25.0,100,90,0.86,RE,1700157998
197,mar del plata,-38.0023,-57.5575,22.13,64,20,7.2,AR,1700157533
198,crane,31.3974,-102.3501,20.15,59,100,6.72,US,1700157998
199,afaahiti,-17.75,-149.2833,25.93,80,100,10.51,PF,1700157999
200,klyuchi,52.2667,79.1667,6.66,61,100,3.49,RU,1700157769
201,east london,-33.0153,27.9116,17.52,94,75,5.66,ZA,1700157999
202,namibe,-15.1961,12.1522,23.64,77,79,4.24,AO,1700157999
203,hami,42.8,93.45,3.02,31,1,1.55,CN,1700157999
204,parry sound,45.3501,-80.033,10.03,43,94,4.29,CA,1700157999
205,tshikapa,-6.4167,20.8,21.73,94,100,0.18,CD,1700158000
206,qusmuryn,52.4503,64.6311,3.43,82,100,3.4,KZ,1700158000
207,zeya,53.75,127.2667,-7.51,71,98,1.81,RU,1700158000
208,petropavlovsk-kamchatsky,53.0452,158.6483,-8.08,75,0,6.26,RU,1700157764
209,west island,-12.1568,96.8225,25.99,73,40,4.63,CC,1700158000
210,kapuskasing,49.4169,-82.4331,6.05,49,100,8.75,CA,1700158000
211,ola,59.5833,151.2833,-16.57,84,26,2.69,RU,1700158000
212,temirgoyevskaya,45.1141,40.2803,8.96,94,100,0.95,RU,1700158001
213,palpala,-24.2565,-65.2116,31.57,38,75,5.14,AR,1700158001
214,likiep,9.8251,169.3107,28.06,82,62,8.99,MH,1700158001
215,kavaratti,10.5669,72.642,28.66,74,90,3.44,IN,1700158001
216,rio grande,-32.035,-52.0986,31.06,66,22,4.92,BR,1700158001
217,loiza,18.4313,-65.8802,32.38,64,40,8.23,PR,1700158001
218,tazovsky,67.4667,78.7,-18.94,99,11,3.83,RU,1700157807
219,kismayo,-0.3582,42.5454,27.66,80,47,4.34,SO,1700158001
220,yamazakicho-nakabirose,35.0,134.55,11.25,99,100,1.37,JP,1700158002
221,lionel town,17.8101,-77.2406,24.78,94,100,7.9,JM,1700158002
222,ust'-kulom,61.6864,53.6902,-6.49,93,100,3.11,RU,1700157768
223,birao,10.2849,22.7882,29.48,27,91,2.35,CF,1700158002
224,kununurra,-15.7667,128.7333,26.99,83,6,1.54,AU,1700158002
225,cuorgne,45.3895,7.6499,10.65,71,27,2.04,IT,1700158002
226,saudarkrokur,65.7461,-19.6394,0.53,79,32,3.35,IS,1700158002
227,treasure island,27.7692,-82.769,23.43,83,100,4.63,US,1700158002
228,timbuktu,16.7735,-3.0074,30.93,13,71,4.55,ML,1700158003
229,chern',53.4523,36.9145,1.96,96,100,3.05,RU,1700158003
230,naudero,27.6648,68.3622,20.01,23,93,2.36,PK,1700158003
231,pavlovo,55.9686,43.0912,-1.37,88,94,2.81,RU,1700157813
232,vorgashor,67.5833,63.95,-14.41,96,100,4.99,RU,1700158003
233,conde,-7.2597,-34.9075,28.7,70,75,5.14,BR,1700158003
234,toliara,-23.35,43.6667,25.85,61,0,5.72,MG,1700157737
235,shizunai-furukawacho,42.3339,142.3669,8.33,71,100,9.86,JP,1700158003
236,bayanaul,50.7889,75.6956,5.59,49,100,3.67,KZ,1700158003
237,sar-e pul,35.8333,66.1667,14.03,18,96,3.26,AF,1700158004
238,soe,-9.8607,124.284,20.26,94,30,0.76,ID,1700158004
239,kindu,-2.95,25.95,22.36,99,100,0.88,CD,1700158004
240,lodwar,3.1191,35.5973,30.43,48,35,6.65,KE,1700158004
241,flying fish cove,-10.4217,105.6791,25.82,83,100,3.6,CX,1700158004
242,ancud,-41.8697,-73.8203,11.02,97,100,9.8,CL,1700158004
243,charters towers,-20.1,146.2667,20.61,70,6,4.6,AU,1700158005
244,pisco,-13.7,-76.2167,22.23,78,0,4.63,PE,1700158005
245,belyy yar,53.6039,91.3903,-8.06,93,100,1.0,RU,1700158005
246,tamanrasset,22.785,5.5228,21.95,20,0,4.12,DZ,1700157892
247,bharatpur,27.2167,77.4833,18.91,37,0,1.34,IN,1700158005
248,weno,7.4515,151.8468,27.26,83,100,4.38,FM,1700158005
249,muynoq,43.7683,59.0214,11.83,78,78,3.28,UZ,1700158005
250,ta`u,-14.2336,-169.5144,27.89,82,96,4.88,AS,1700158005
251,oranjemund,-28.55,16.4333,17.62,84,82,2.05,NA,1700158005
252,santa elena de uairen,4.6167,-61.1333,26.64,63,43,2.63,VE,1700158006
253,belmonte,-15.8631,-38.8828,29.34,60,81,3.84,BR,1700157836
254,yeppoon,-23.1333,150.7333,22.88,85,22,1.48,AU,1700158006
255,nema,57.5067,50.5011,-1.2,95,100,2.15,RU,1700158006
256,uturoa,-16.7333,-151.4333,25.8,75,94,10.37,PF,1700158006
257,igarka,67.4667,86.5833,-20.96,100,55,2.36,RU,1700158007
258,keflavik,64.0049,-22.5624,3.24,87,0,3.6,IS,1700158007
259,kattivakkam,13.2167,80.3167,27.26,83,80,4.51,IN,1700158007
260,fale old settlement,-9.3852,-171.2468,29.1,74,82,3.36,TK,1700157878
261,newman,37.3138,-121.0208,19.02,80,44,0.45,US,1700157870
262,ust-nera,64.5667,143.2,-24.37,98,89,3.88,RU,1700158007
263,labuan,5.2767,115.2417,26.29,86,99,5.28,MY,1700158007
264,chita,52.0333,113.55,-18.06,77,28,2.0,RU,1700158007
265,sosnovka,56.255,51.2842,1.1,84,100,1.94,RU,1700158008
266,es castell,39.8795,4.2854,18.38,100,20,3.09,ES,1700158008
267,taoudenni,22.6783,-3.9836,29.03,14,68,4.26,ML,1700158008
268,touros,-5.1989,-35.4608,29.21,62,62,7.3,BR,1700158008
269,hasaki,35.7333,140.8333,12.38,68,100,8.84,JP,1700157853
270,port saint john's,-31.6229,29.5448,22.62,74,100,1.86,ZA,1700158008
271,an nuhud,12.7,28.4333,26.83,25,36,6.37,SD,1700158008
272,eyl,7.9803,49.8164,27.41,78,69,3.81,SO,1700158008
273,kailua-kona,19.6406,-155.9956,25.28,74,40,2.57,US,1700158008
274,old town,50.087,14.4202,8.59,83,75,4.63,CZ,1700157719
275,taro,-8.3862,115.28,23.0,94,57,0.21,ID,1700158009
276,quatre cocos,-20.2078,57.7625,25.31,79,99,1.82,MU,1700158009
277,hoganas,56.1997,12.558,4.97,70,100,6.26,SE,1700158009
278,kremnica,48.7052,18.9183,4.03,92,90,1.59,SK,1700158009
279,chernyshevskiy,63.0128,112.4714,-3.35,95,100,4.98,RU,1700158009
280,muisne,0.6,-80.0333,26.25,81,97,4.97,EC,1700158009
281,salinopolis,-0.6136,-47.3561,29.7,65,64,5.16,BR,1700158009
282,san julian,21.0167,-102.1667,21.45,36,1,2.79,MX,1700158010
283,inirida,3.8653,-67.9239,35.1,45,61,0.64,CO,1700158010
284,kristiansund,63.1115,7.732,-0.64,69,0,1.54,NO,1700158010
285,bei'an,24.5399,109.533,10.05,78,80,2.22,CN,1700158010
286,verdal,63.7933,11.4817,-7.98,68,3,1.55,NO,1700158010
287,borogontsy,62.6683,131.1683,-18.66,97,100,2.84,RU,1700158010
288,kamloops,50.6665,-120.3192,0.87,83,75,4.12,CA,1700157920
289,lanxi,29.2195,119.477,7.45,69,20,1.9,CN,1700158010
290,nobres,-14.7203,-56.3275,43.13,15,9,4.51,BR,1700158010
291,huarmey,-10.0681,-78.1522,23.39,73,61,5.52,PE,1700158010
292,saint croix,17.7397,-64.7388,31.25,68,40,6.17,VI,1700158011
293,coruripe,-10.1256,-36.1756,29.36,60,34,6.88,BR,1700158011
294,champerico,14.3,-91.9167,29.31,72,13,2.19,GT,1700158011
295,tiruchchendur,8.4833,78.1167,27.46,79,97,2.81,IN,1700158011
296,tadmait,36.7441,3.9005,18.58,56,30,0.74,DZ,1700158011
297,la foa,-21.7108,165.8276,21.23,85,4,1.45,NC,1700158011
298,nabire,-3.3667,135.4833,24.53,84,100,1.96,ID,1700158011
299,amlame,7.4667,0.9,27.15,60,59,1.93,TG,1700158011
300,namsos,64.4662,11.4957,-7.97,67,12,5.14,NO,1700158012
301,arta,39.1606,20.9853,17.8,80,43,1.14,GR,1700158012
302,pandan,14.0453,124.1694,26.41,86,98,7.69,PH,1700158012
303,ar rutbah,33.0381,40.2848,17.76,49,0,2.37,IQ,1700158012
304,xiaoweizhai,26.1903,107.5125,7.41,85,49,1.6,CN,1700158012
305,gorno-altaysk,51.9561,85.955,1.95,86,100,1.79,RU,1700158012
306,barbastro,42.0356,0.1269,18.1,79,17,2.97,ES,1700158012
307,choyr,46.3611,108.3611,-12.81,83,5,1.04,MN,1700158012
308,taguatinga,-12.3857,-46.5711,37.56,25,30,3.73,BR,1700158012
309,bratsk,56.1325,101.6142,0.27,83,100,3.79,RU,1700158013
310,cambria,35.5641,-121.0808,22.53,79,63,3.9,US,1700157780
311,manicore,-5.8092,-61.3003,42.07,18,2,1.1,BR,1700158013
312,macapa,0.0389,-51.0664,35.99,44,40,4.12,BR,1700157841
313,sageata,45.1,26.9833,9.68,58,9,3.93,RO,1700158013
314,hamamatsu,34.7,137.7333,12.23,92,100,0.45,JP,1700158013
315,arteche,12.2645,125.4048,26.42,88,88,4.46,PH,1700158013
316,minas de marcona,-15.2119,-75.1103,21.31,53,50,6.2,PE,1700158013
317,tam ky,15.5667,108.4833,23.81,87,100,7.96,VN,1700158013
318,berezovyy,51.6667,135.7,-7.89,88,100,0.63,RU,1700158014
319,isokyro,63.0117,22.3333,-1.8,98,65,1.23,FI,1700158014
320,dundaga,57.5167,22.35,0.51,73,99,2.17,LV,1700158014
321,mhasvad,17.6333,74.7833,22.1,45,2,3.21,IN,1700158014
322,mariental,-24.6333,17.9667,24.11,56,84,7.7,NA,1700158014
323,padang,-0.9492,100.3543,26.03,92,97,0.91,ID,1700157813
324,iquique,-20.2208,-70.1431,20.9,69,28,4.02,CL,1700158014
325,zhanaozen,43.3,52.8,12.64,95,96,3.94,KZ,1700158015
326,remire-montjoly,4.9167,-52.2667,32.02,62,0,6.17,GF,1700158015
327,bac lieu,9.285,105.7244,26.36,86,100,7.35,VN,1700157856
328,extrema,-22.8547,-46.3183,33.6,29,98,3.39,BR,1700157757
329,mlangali,-9.7833,34.5167,15.81,85,94,2.31,TZ,1700158015
330,sinabang,2.4803,96.3801,26.04,88,100,1.86,ID,1700158015
331,suva,-18.1416,178.4415,23.71,94,75,0.51,FJ,1700157783
332,axim,4.8699,-2.2405,26.96,82,39,3.57,GH,1700158015
333,mossel bay,-34.1831,22.146,19.96,83,100,1.28,ZA,1700157839
334,bhuj,23.2667,69.6667,23.56,38,39,2.21,IN,1700158015
335,severo-yeniseyskiy,60.3725,93.0408,-2.46,94,100,4.47,RU,1700158016
336,song cau,13.45,109.2167,24.75,94,92,8.2,VN,1700158016
337,arraial do cabo,-22.9661,-42.0278,35.98,62,0,8.23,BR,1700157797
338,pariaman,-0.619,100.12,26.03,90,99,1.18,ID,1700158016
339,zhezqazghan,47.7833,67.7667,7.74,50,99,2.5,KZ,1700158016
340,vernon,50.2581,-119.2691,1.83,88,41,1.54,CA,1700157779
341,gafanha da nazare,40.6362,-8.7134,19.45,94,97,2.46,PT,1700158016
342,kayangel,8.0823,134.7173,28.82,81,94,7.78,PW,1700158016
343,arno,60.1167,18.6333,-1.79,72,99,2.76,SE,1700158016
344,moraleja,40.0162,-6.6977,16.47,83,43,1.36,ES,1700158017
345,abepura,-2.6333,140.5833,24.45,94,20,0.51,ID,1700157833
346,lamu,-2.2717,40.902,26.12,82,20,4.44,KE,1700157763
347,badiyah,22.45,58.8,23.33,67,73,4.22,OM,1700158017
348,lerwick,60.1545,-1.1494,4.0,58,94,2.66,GB,1700158017
349,utrik,11.2278,169.8474,28.03,81,31,8.89,MH,1700158017
350,monrovia,6.3005,-10.7969,29.87,76,21,2.71,LR,1700158017
351,lazaro cardenas,17.9583,-102.2,30.47,69,19,2.03,MX,1700157847
352,rongelap,11.1635,166.8941,27.97,82,46,8.95,MH,1700158017
353,anan,33.9167,134.65,14.88,94,100,5.14,JP,1700158017
354,santo anastacio,-21.8383,-51.6103,40.64,17,25,4.55,BR,1700158018
355,vanimo,-2.6741,141.3028,25.29,91,52,1.95,PG,1700158018
356,mahina,-17.5065,-149.489,26.87,74,75,3.6,PF,1700158018
357,boda,4.3189,17.4695,21.44,95,100,3.81,CF,1700158018
358,troitsko-pechorsk,62.7084,56.1964,-6.84,87,100,0.45,RU,1700158018
359,juneau,58.3019,-134.4197,3.01,97,100,6.17,US,1700158018
360,castillos,-34.1667,-53.8333,23.15,49,52,4.58,UY,1700158018
361,tahoua,14.8888,5.2692,29.66,16,0,4.97,NE,1700158018
362,retreat,38.8245,-85.8533,19.99,51,25,0.45,US,1700158019
363,tenenkou,14.4572,-4.9169,32.83,16,16,3.97,ML,1700158019
364,sao joao de pirabas,-0.7747,-47.1772,30.4,60,66,4.39,BR,1700158019
365,narok,-1.0783,35.8601,16.81,83,64,4.24,KE,1700158019
366,magadi,12.9667,77.2333,23.09,72,100,2.34,IN,1700158019
367,lincoln city,44.9582,-124.0179,9.27,94,7,0.89,US,1700157847
368,isperih,43.7167,26.8333,9.1,66,17,5.0,BG,1700158019
369,at taj,24.2049,23.2857,19.36,37,95,4.63,LY,1700158019
370,tchintabaraden,15.8969,5.7985,28.77,15,0,4.82,NE,1700158019
371,al bayda',32.7627,21.7551,15.46,91,3,2.93,LY,1700158020
372,jiangyou,31.7667,104.7167,9.48,67,72,0.63,CN,1700158020
373,rabo de peixe,37.8,-25.5833,21.1,99,40,7.2,PT,1700158020
374,amantea,39.1332,16.0746,17.86,79,27,1.83,IT,1700158020
375,yuzhno-kurilsk,44.0306,145.8556,6.32,65,99,7.52,RU,1700157730
376,mesudiye,40.4625,37.7725,6.44,95,100,2.48,TR,1700158020
377,vila velha,-20.3297,-40.2925,29.97,74,0,10.29,BR,1700158020
378,port macquarie,-31.4333,152.9167,18.83,93,97,0.94,AU,1700158020
379,wuhu,31.3366,118.3755,6.97,64,0,3.61,CN,1700157906
380,gumi,36.1136,128.336,6.75,88,58,1.97,KR,1700157808
381,pagar alam,-4.0167,103.2667,20.73,97,100,0.62,ID,1700158021
382,majene,-3.5403,118.9707,26.42,85,91,2.1,ID,1700158021
383,yanbu,24.0891,38.0637,27.02,54,0,2.57,SA,1700158021
384,amga,60.8953,131.9608,-23.6,100,90,1.87,RU,1700158021
385,derzhavinsk,51.1,66.3167,3.45,86,100,2.36,KZ,1700158021
386,tocopilla,-22.092,-70.1979,21.14,67,80,5.25,CL,1700158021
387,sulya,12.5667,75.3833,23.54,94,92,0.82,IN,1700158022
388,east ballina,-28.8667,153.5833,22.11,95,98,6.61,AU,1700158022
389,lampazos de naranjo,27.0167,-100.5167,22.88,59,25,2.13,MX,1700158022
390,vorkuta,67.5,64.0,-14.86,97,100,5.05,RU,1700157748
391,korsakov,46.6328,142.7813,5.83,79,100,6.84,RU,1700158022
392,tindouf,27.6711,-8.1474,24.97,18,9,3.78,DZ,1700158022
393,arac,41.2422,33.3277,7.94,83,92,2.56,TR,1700158022
394,qurayyat,31.3318,37.3428,17.1,63,0,0.0,SA,1700158022
395,chissamba,-12.1667,17.3333,20.48,76,100,0.89,AO,1700158023
396,la'ie,21.6477,-157.9253,24.5,69,84,2.24,US,1700158023
397,nadi,-17.8,177.4167,22.0,94,20,2.06,FJ,1700157806
398,rangkasbitung,-6.3591,106.2494,27.99,89,100,0.92,ID,1700158024
399,kapa'a,22.0752,-159.319,24.18,81,40,7.72,US,1700158024
400,talnakh,69.4865,88.3972,-11.55,95,100,4.1,RU,1700158024
401,qui nhon,13.7667,109.2333,25.24,89,93,10.41,VN,1700158024
402,luanda,-8.8368,13.2343,29.0,70,40,4.63,AO,1700157521
403,opuwo,-18.0607,13.84,23.37,65,93,0.54,NA,1700158025
404,manaure,11.7751,-72.4445,31.55,63,99,6.51,CO,1700158025
405,palmer,42.1584,-72.3287,17.81,43,1,2.68,US,1700158025
406,acapulco de juarez,16.8634,-99.8901,30.72,62,16,1.75,MX,1700157755
407,st. paul,44.9444,-93.0933,18.67,61,0,8.75,US,1700157958
408,tura,25.5198,90.2201,19.92,94,100,1.3,IN,1700158025
409,ust-tsilma,65.441,52.1498,-12.44,94,94,2.68,RU,1700158026
410,benjamin aceval,-24.9667,-57.5667,31.08,63,70,4.6,PY,1700158026
411,susuman,62.7833,148.1667,-33.86,100,85,0.52,RU,1700158026
412,lesogorsk,56.0458,99.5136,-5.04,94,100,1.79,RU,1700158026
413,margate,51.3813,1.3862,8.28,91,100,3.58,GB,1700158026
414,tanaina,61.6269,-149.4281,3.16,89,100,4.63,US,1700158026
415,queenstown,-31.8976,26.8753,21.03,47,83,2.82,ZA,1700158026
416,krasnoarmeysk,51.0239,45.6969,3.6,86,100,2.4,RU,1700158027
417,lewisville,33.0462,-96.9942,16.9,88,100,3.6,US,1700157812
418,usogorsk,63.4106,48.6872,-12.41,98,95,2.49,RU,1700158027
419,ts'q'alt'ubo,42.3413,42.5976,12.36,79,100,5.1,GE,1700158027
420,beau vallon,-20.4189,57.6953,25.23,79,100,1.57,MU,1700158027
421,tangalle,6.024,80.7911,25.74,88,100,2.66,LK,1700158027
422,walvis bay,-22.9575,14.5053,21.16,70,29,2.46,NA,1700158027
423,nizhniy odes,63.6445,54.856,-17.36,100,95,1.48,RU,1700158028
424,saint-philippe,-21.3585,55.7679,23.77,91,82,4.86,RE,1700158028
425,hirara,24.8,125.2833,20.91,74,100,13.96,JP,1700158028
426,noosa heads,-26.3833,153.15,25.62,81,94,5.16,AU,1700158028
427,zyryanovsk,49.7386,84.2719,-3.89,87,97,0.91,KZ,1700158028
428,az zuwaytinah,30.9522,20.1202,22.5,72,0,4.66,LY,1700158028
429,bedesa,8.9,40.7833,19.03,78,95,0.72,ET,1700158028
430,puerto deseado,-47.7503,-65.8938,16.41,36,99,7.23,AR,1700158028
431,inari,68.906,27.0288,-11.89,90,95,3.26,FI,1700158028
432,donetsk,48.0,37.8,8.54,78,100,2.52,UA,1700158029
433,roma,43.2128,-75.4557,16.71,52,0,0.0,US,1700157850
434,inebolu,41.9747,33.7608,13.27,75,79,6.84,TR,1700157794
435,la ronge,55.1001,-105.2842,-6.89,82,78,3.34,CA,1700158029
436,uberlandia,-18.9186,-48.2772,36.77,19,57,1.52,BR,1700158029
437,puerto lempira,15.2667,-83.7667,28.34,77,97,7.82,HN,1700158029
438,ust'-ilimsk,58.0006,102.6619,0.8,81,100,5.36,RU,1700158030
439,dudinka,69.4058,86.1778,-11.32,96,97,4.8,RU,1700158030
440,sao joao da barra,-21.6403,-41.0511,33.05,78,34,10.21,BR,1700157796
441,khanty-mansiysk,61.0042,69.0019,0.06,100,75,2.0,RU,1700158030
442,mangrol,21.1167,70.1167,25.12,48,0,4.37,IN,1700158030
443,inderbor,48.55,51.7833,7.85,93,100,1.67,KZ,1700158030
444,susangerd,31.5608,48.1831,21.46,71,21,2.41,IR,1700158030
445,inarajan village,13.2736,144.7484,28.54,89,100,7.5,GU,1700158031
446,baki,-7.6128,110.7839,25.3,86,100,3.67,ID,1700158031
447,impfondo,1.6381,18.0667,22.66,97,74,1.37,CG,1700158031
448,mejit,10.2753,170.8646,28.03,79,81,8.15,MH,1700158031
449,okhotsk,59.3833,143.3,-18.48,85,5,5.6,RU,1700157770
450,faya-largeau,17.9257,19.1043,24.43,20,91,6.06,TD,1700158031
451,naze,28.3667,129.4833,16.21,83,100,10.45,JP,1700158032
452,lodja,-3.4833,23.4333,22.06,99,99,0.63,CD,1700158032
453,prince rupert,54.3161,-130.3201,7.83,95,100,19.03,CA,1700157927
454,forest lake,45.2789,-92.9852,18.38,63,96,9.29,US,1700158032
455,mili,6.0815,171.735,28.37,78,99,6.99,MH,1700158032
456,carlisle,40.2015,-77.1889,19.95,37,14,2.28,US,1700158032
457,baotou,40.6522,109.8222,-0.85,38,0,4.25,CN,1700158032
458,sal rei,16.1833,-22.9167,28.11,69,0,5.14,CV,1700158032
459,boa vista,2.8197,-60.6733,34.99,43,40,2.57,BR,1700157839
460,port douglas,-16.4833,145.4667,21.09,79,51,1.15,AU,1700158033
461,chom thong,18.4174,98.6743,25.14,98,100,1.14,TH,1700158033
462,el granada,37.5027,-122.4694,17.94,80,0,3.6,US,1700158033
463,xilin hot,43.9667,116.0333,-12.77,82,50,6.31,CN,1700158033
464,bintulu,3.1667,113.0333,25.62,88,79,2.46,MY,1700158033
465,kiunga,-6.1219,141.2906,23.85,96,83,1.13,PG,1700157886
466,nyala,12.05,24.8833,27.96,25,96,5.3,SD,1700158034
467,nagqu,31.5,92.0,-5.78,69,1,1.6,CN,1700158034
468,upington,-28.4478,21.2561,23.33,55,97,7.36,ZA,1700158034
469,itoman,26.1247,127.6694,20.78,83,75,13.89,JP,1700158034
470,gulf shores,30.246,-87.7008,22.43,75,40,6.17,US,1700158034
471,selfoss,63.9331,-20.9971,5.58,81,98,4.36,IS,1700158035
472,toguchin,55.2353,84.3858,4.46,71,100,6.3,RU,1700158035
473,skeldon,5.8833,-57.1333,30.35,62,30,3.53,GY,1700158035
474,marks,51.7111,46.7486,5.65,87,100,1.28,RU,1700158035
475,port blair,11.6667,92.75,28.12,80,78,4.49,IN,1700158035
476,springbok,-29.6643,17.8865,21.75,28,95,2.36,ZA,1700157885
477,salym,60.0625,71.4789,-0.44,93,97,3.72,RU,1700158036
478,taulaga,-11.0553,-171.0883,28.56,76,81,2.81,AS,1700158036
479,cova figueira,14.8905,-24.2934,24.98,59,91,4.37,CV,1700158036
480,dunedin,-45.8742,170.5036,9.89,93,100,1.79,NZ,1700158014
481,fort wellington,6.4,-57.6,30.98,60,8,4.44,GY,1700158036
482,whistler,50.1164,-122.9695,-2.43,93,20,1.03,CA,1700157784
483,myrhorod,49.9685,33.6089,5.53,87,100,4.82,UA,1700158037
484,palikir - national government center,6.9248,158.1611,27.37,79,100,3.26,FM,1700157801
485,caleta de carquin,-11.0925,-77.6267,22.54,73,72,5.79,PE,1700158037
486,alo,7.4178,6.7371,27.87,55,37,0.75,NG,1700157876
487,ain leuh,33.2921,-5.3384,15.86,33,55,1.93,MA,1700158037
488,tafuna,-14.3358,-170.72,28.37,81,74,5.13,AS,1700158037
489,bothaville,-27.3887,26.617,23.94,39,100,2.99,ZA,1700158037
490,havre,49.5833,0.3333,8.87,81,100,6.69,FR,1700158037
491,tsiombe,-25.3,45.4833,20.94,68,32,8.33,MG,1700158037
492,harper,4.375,-7.7169,26.68,82,24,2.48,LR,1700158038
493,labrador city,52.9463,-66.9114,-1.05,74,75,3.6,CA,1700158038
494,broken hill,-31.95,141.4333,13.59,39,31,6.73,AU,1700157840
495,malvan,16.0667,73.4667,25.35,63,20,3.51,IN,1700158038
496,queimadas,-10.9783,-39.6264,37.97,20,26,3.84,BR,1700158038
497,albina,5.5,-54.05,28.54,76,60,1.84,SR,1700158039
498,el nido,11.1858,119.3956,27.95,74,99,3.23,PH,1700158039
499,richards bay,-28.783,32.0377,21.87,81,97,3.77,ZA,1700158039
500,keetmanshoop,-26.5833,18.1333,25.71,43,52,5.54,NA,1700158039
501,nar'yan-mar,67.6713,53.087,-8.83,96,100,2.68,RU,1700158039
502,dolbeau-mistassini,48.8763,-72.212,2.27,84,73,1.75,CA,1700158039
503,brisas de zicatela,15.8369,-97.0419,30.29,58,20,4.63,MX,1700158039
504,necochea,-38.5473,-58.7368,17.12,44,16,5.6,AR,1700158040
505,petauke,-14.2426,31.3253,25.78,31,17,5.38,ZM,1700158040
506,garrucha,37.1874,-1.8349,18.52,65,92,0.63,ES,1700158040
507,sokcho,38.2083,128.5911,6.06,73,44,3.66,KR,1700158041
508,ketchikan,55.3422,-131.6461,9.26,100,100,9.77,US,1700158041
509,lavrio,37.7145,24.0565,19.39,61,71,6.83,GR,1700158042
510,ulladulla,-35.35,150.4667,13.76,81,100,6.91,AU,1700158042
511,roses,42.262,3.1769,16.34,85,50,3.08,ES,1700158043
512,kudat,6.8837,116.8477,26.47,87,98,4.09,MY,1700158043
513,ofunato,39.0717,141.7167,14.74,83,100,6.8,JP,1700157767
514,amarillo,35.222,-101.8313,19.28,57,0,9.26,US,1700157558
515,san andres,12.5847,-81.7006,27.01,94,20,2.06,CO,1700158044
516,puerto aysen,-45.4,-72.7,7.03,100,100,2.28,CL,1700157771
517,merizo village,13.2658,144.6691,28.31,89,100,7.53,GU,1700158044
518,portland,45.5234,-122.6762,10.48,82,20,2.57,US,1700157526
519,hoima,1.4356,31.3436,19.36,93,100,0.73,UG,1700158044
520,belle fourche,44.6714,-103.8522,9.17,47,80,7.07,US,1700158045
521,robore,-18.3333,-59.75,41.05,29,20,9.26,BO,1700158045
522,samdrup jongkhar,26.9167,91.6167,16.91,50,100,2.15,BT,1700158046
523,lubny,50.0163,32.9969,4.43,89,100,4.76,UA,1700158046
524,sovetskaya gavan',48.9723,140.2878,-4.39,92,100,1.77,RU,1700158046
525,nadym,65.5333,72.5167,-15.3,88,54,4.04,RU,1700158046
526,dadukou,26.5479,101.7054,11.93,67,94,0.37,CN,1700158046
527,dakhla,23.6848,-15.958,22.08,63,0,7.54,EH,1700158046
528,vologda,59.2187,39.8886,-2.47,75,100,3.58,RU,1700158047
529,kas,36.2018,29.6377,19.91,75,1,2.75,TR,1700158047
530,mount gambier,-37.8333,140.7667,7.3,90,61,1.99,AU,1700157830
531,coyhaique,-45.5752,-72.0662,15.34,62,75,6.17,CL,1700157902
532,san luis,-33.295,-66.3356,27.53,15,0,3.17,AR,1700158047
533,veraval,20.9,70.3667,25.47,57,1,1.83,IN,1700158047
534,maun,-19.9833,23.4167,28.65,34,91,6.0,BW,1700158047
535,isla del bosque,22.7333,-105.85,29.95,61,43,2.15,MX,1700158048
536,crockett,31.3182,-95.4566,16.99,88,100,0.0,US,1700157841
537,pimentel,-6.8367,-79.9342,25.16,61,0,8.23,PE,1700158048
538,naifaru,5.4444,73.3657,28.36,71,45,1.35,MV,1700158048
539,la isla,18.6,-96.15,26.77,62,33,3.55,MX,1700158048
540,conception bay south,47.4999,-52.9981,1.69,77,90,1.85,CA,1700157872
541,okha,53.5739,142.9478,-4.15,85,100,3.71,RU,1700158049
542,ulanhot,46.0833,122.0833,-6.75,75,100,5.54,CN,1700158049
543,ambovombe,-25.1667,46.0833,20.25,72,13,9.31,MG,1700158049
544,erdenet,49.0333,104.0833,-9.82,90,17,1.72,MN,1700158049
545,farafangana,-22.8167,47.8333,22.09,85,69,4.87,MG,1700158049
546,tateyama,34.9833,139.8667,14.96,94,75,2.06,JP,1700158049
547,sola,-13.8833,167.55,25.55,82,97,7.73,VU,1700157849
548,mount isa,-20.7333,139.5,23.87,53,69,1.03,AU,1700158050
549,malabar,-33.9667,151.25,16.84,83,75,10.29,AU,1700158050
550,turaif,31.6725,38.6637,17.14,48,40,2.06,SA,1700158050
551,ouarzazat,30.9189,-6.8934,22.0,19,4,1.57,MA,1700158050
552,skidaway island,31.9349,-81.0471,19.99,85,100,4.47,US,1700158051
553,itaituba,-4.2761,-55.9836,37.09,41,20,2.06,BR,1700157943
